,name,lat,lon,category,type
0,The Vortex Bar & Grill,33.778891,-84.384445,Sports Bar,"{'typepoint': {'type': 'Point', 'coordinates': [33.778891, -84.384445]}}"
1,Smith's Olde Bar,33.797604,-84.368838,Rock Club,"{'typepoint': {'type': 'Point', 'coordinates': [33.797604, -84.368838]}}"
2,The Painted Duck,33.781387,-84.413783,Bowling Alley,"{'typepoint': {'type': 'Point', 'coordinates': [33.781387, -84.413783]}}"
3,The Albert,33.761975,-84.357624,Sports Bar,"{'typepoint': {'type': 'Point', 'coordinates': [33.761975, -84.357624]}}"
4,Manuel's Tavern,33.770827,-84.352676,Bar,"{'typepoint': {'type': 'Point', 'coordinates': [33.770827, -84.352676]}}"
5,The Local,33.774026,-84.36225,Dive Bar,"{'typepoint': {'type': 'Point', 'coordinates': [33.774026, -84.36225]}}"
6,The Vortex Bar & Grill,33.766296,-84.349229,Bar,"{'typepoint': {'type': 'Point', 'coordinates': [33.766296, -84.349229]}}"
7,The Roof Top,33.773512,-84.361412,Bar,"{'typepoint': {'type': 'Point', 'coordinates': [33.773512, -84.361412]}}"
8,Atkins Park Restaurant,33.776223,-84.352679,Restaurant,"{'typepoint': {'type': 'Point', 'coordinates': [33.776223, -84.352679]}}"
9,Moe's and Joe's Tavern,33.782894,-84.354289,Dive Bar,"{'typepoint': {'type': 'Point', 'coordinates': [33.782894, -84.354289]}}"
10,Bar Margot,33.786255,-84.385276,Lounge,"{'typepoint': {'type': 'Point', 'coordinates': [33.786255, -84.385276]}}"
11,Dugan's Restaurant,33.773591,-84.361848,Restaurant,"{'typepoint': {'type': 'Point', 'coordinates': [33.773591, -84.361848]}}"
12,97 Estoria,33.751936,-84.363489,Dive Bar,"{'typepoint': {'type': 'Point', 'coordinates': [33.751936, -84.363489]}}"
13,Barcelona Wine Bar Westside Ironworks,33.784561,-84.4112,American Restaurant,"{'typepoint': {'type': 'Point', 'coordinates': [33.784561, -84.4112]}}"
14,Cirque Daiquiri Bar and Grill,33.810921,-84.37004,Sports Bar,"{'typepoint': {'type': 'Point', 'coordinates': [33.810921, -84.37004]}}"
15,Park Bar,33.758206,-84.392811,Sports Bar,"{'typepoint': {'type': 'Point', 'coordinates': [33.758206, -84.392811]}}"
16,Friends On Ponce,33.773938,-84.36319,Gay Bar,"{'typepoint': {'type': 'Point', 'coordinates': [33.773938, -84.36319]}}"
17,Bulldog Bar,33.778997,-84.383958,Night Club,"{'typepoint': {'type': 'Point', 'coordinates': [33.778997, -84.383958]}}"
18,There On Fifth,33.776571,-84.387903,Bar,"{'typepoint': {'type': 'Point', 'coordinates': [33.776571, -84.387903]}}"
19,Model T,33.741892,-84.36857,Bar,"{'typepoint': {'type': 'Point', 'coordinates': [33.741892, -84.36857]}}"
20,Publik Draft House,33.772492,-84.385046,Bar,"{'typepoint': {'type': 'Point', 'coordinates': [33.772492, -84.385046]}}"
21,Cypress Street Pint & Plate,33.777291,-84.386198,Cocktail Bar,"{'typepoint': {'type': 'Point', 'coordinates': [33.777291, -84.386198]}}"
22,The Lawrence,33.779268,-84.382443,Cocktail Bar,"{'typepoint': {'type': 'Point', 'coordinates': [33.779268, -84.382443]}}"
23,Steamhouse Lounge,33.783436,-84.387565,Restaurant,"{'typepoint': {'type': 'Point', 'coordinates': [33.783436, -84.387565]}}"
24,The Bookhouse Pub,33.773938,-84.36319,Beer Garden,"{'typepoint': {'type': 'Point', 'coordinates': [33.773938, -84.36319]}}"
25,Torched Hop Brewing Company,33.772327,-84.379401,Bar,"{'typepoint': {'type': 'Point', 'coordinates': [33.772327, -84.379401]}}"
26,Marlow's Tavern,33.780022,-84.388318,Restaurant,"{'typepoint': {'type': 'Point', 'coordinates': [33.780022, -84.388318]}}"
27,Henry's Midtown Tavern,33.781961,-84.382872,Burger Joint,"{'typepoint': {'type': 'Point', 'coordinates': [33.781961, -84.382872]}}"
28,10th & Piedmont,33.781624,-84.380153,American Restaurant,"{'typepoint': {'type': 'Point', 'coordinates': [33.781624, -84.380153]}}"
29,Senor Patron,33.77826,-84.385209,Restaurant,"{'typepoint': {'type': 'Point', 'coordinates': [33.77826, -84.385209]}}"
30,Murphy's,33.782107,-84.354704,American Restaurant,"{'typepoint': {'type': 'Point', 'coordinates': [33.782107, -84.354704]}}"
31,Elliott Street Deli & Pub,33.753141,-84.398208,Dive Bar,"{'typepoint': {'type': 'Point', 'coordinates': [33.753141, -84.398208]}}"
32,Saltwood Charcuterie & Bar,33.782969,-84.383573,Hotel Bar,"{'typepoint': {'type': 'Point', 'coordinates': [33.782969, -84.383573]}}"
33,Yard House,33.793624,-84.397296,American Restaurant,"{'typepoint': {'type': 'Point', 'coordinates': [33.793624, -84.397296]}}"
34,McCray's Tavern Midtown,33.786234,-84.387506,Restaurant,"{'typepoint': {'type': 'Point', 'coordinates': [33.786234, -84.387506]}}"
35,The Gathering Spot,33.767536,-84.400881,Speakeasy,"{'typepoint': {'type': 'Point', 'coordinates': [33.767536, -84.400881]}}"
36,Blake's On The Park,33.781669,-84.379944,Night Club,"{'typepoint': {'type': 'Point', 'coordinates': [33.781669, -84.379944]}}"
37,MJQ Concourse,33.774061,-84.363156,Night Club,"{'typepoint': {'type': 'Point', 'coordinates': [33.774061, -84.363156]}}"
38,Georgia Beer Garden,33.754457,-84.373774,Beer Bar,"{'typepoint': {'type': 'Point', 'coordinates': [33.754457, -84.373774]}}"
39,The Highlander,33.77926,-84.367269,Dive Bar,"{'typepoint': {'type': 'Point', 'coordinates': [33.77926, -84.367269]}}"
40,Northside Tavern,33.783611,-84.412002,Dive Bar,"{'typepoint': {'type': 'Point', 'coordinates': [33.783611, -84.412002]}}"
41,Sister Louisa’s Church of the Living Room and Ping Pong Emporium,33.754496,-84.372259,Night Club,"{'typepoint': {'type': 'Point', 'coordinates': [33.754496, -84.372259]}}"
42,Anatolia Cafe & Hookah Lounge,33.755237,-84.389384,Hookah Bar,"{'typepoint': {'type': 'Point', 'coordinates': [33.755237, -84.389384]}}"
43,Fadó Irish Pub,33.780357,-84.383841,Restaurant,"{'typepoint': {'type': 'Point', 'coordinates': [33.780357, -84.383841]}}"
44,The James Room,33.756275,-84.365421,Cocktail Bar,"{'typepoint': {'type': 'Point', 'coordinates': [33.756275, -84.365421]}}"
45,Joystick Gamebar,33.754116,-84.373738,Arcade,"{'typepoint': {'type': 'Point', 'coordinates': [33.754116, -84.373738]}}"
46,Six Feet Under Pub & Fish House- Grant Park,33.746411,-84.372872,Restaurant,"{'typepoint': {'type': 'Point', 'coordinates': [33.746411, -84.372872]}}"
47,Dr Scofflaw’s Laboratory & Beer Garden,33.803956,-84.42931,Brewery,"{'typepoint': {'type': 'Point', 'coordinates': [33.803956, -84.42931]}}"
48,Righteous Room,33.773473,-84.353052,Dive Bar,"{'typepoint': {'type': 'Point', 'coordinates': [33.773473, -84.353052]}}"
49,Der Biergarten,33.761748,-84.396536,Beer Garden,"{'typepoint': {'type': 'Point', 'coordinates': [33.761748, -84.396536]}}"
